_id,instid,Periode,Insttype,Dagtilbud,Instnavn,Antal,Adresse,Postnr,Postdist,lat,lng,Ledernavn,LINK,Opdateret
1,289,20240501,Aldersintegreret institution,Beder-Malling dagtilbud,Børnehuset Smilehullet,110,Fuldenvej 140A,8330,Beder,56.061329,10.216084,Annette Ladefoged Schiønning,https://bedermallingdagtilbud.aarhus.dk/,2024-05-07T07:16:00
3,298,20240501,Aldersintegreret institution,Beder-Malling dagtilbud,Børnehuset Eghovedvej,83,Eghovedvej 1,8340,Malling,56.042595,10.197629,Mark Nielsen,https://bedermallingdagtilbud.aarhus.dk/,2024-05-07T07:16:00
4,487,20240501,Dagpleje,Beder-Malling dagtilbud,Dagplejen i Beder og Malling,18,Bredgade 5A,8340,Malling,56.047741,10.197225,Susanne Nielsen,https://bedermallingdagtilbud.aarhus.dk/,2024-05-07T07:16:00
5,1576,20240501,Aldersintegreret institution,Christiansbjerg dagtilbud,DII Haven,50,Bodøvej 96,8200,Aarhus N,56.180122,10.180943,Lotte Pedersen,https://dagtilbuddetchristiansbjerg.aarhus.dk,2024-05-07T07:16:00
6,280,20240501,Vuggestue,Christiansbjerg dagtilbud,Vuggestuen Lillefod,53,Katrinebjergvej 140,8200,Aarhus N,56.174946,10.182482,Lena Olesen,https://dagtilbuddetchristiansbjerg.aarhus.dk,2024-05-07T07:16:00
7,145,20240501,Børnehave,Hasle dagtilbud,Børnehaven Charlottehøj,44,Bornholmsvej 9,8210,Aarhus V,56.176952,10.17576,Christian Marino Larsen,https://dagtilbudhasle.aarhus.dk/,2024-05-07T07:16:00
8,409,20240501,Aldersintegreret institution,Brabrand dagtilbud,Børnehuset Bækken - Væksthuset,50,Jettesvej 10E,8220,Brabrand,56.156796,10.132624,Charlotte Stampe Sandau,https://brabranddagtilbud.aarhus.dk/,2024-05-07T07:16:00
9,495,20240501,Dagpleje,Harlev dagtilbud,Dagplejen Harlev,43,Gammel Stillingvej 424A,8462,Harlev J,56.146523,9.9988079,Anette Kjærgaard Jørgensen,https://harlevdagtilbud.aarhus.dk/,2024-05-07T07:16:00
11,291,20240501,Aldersintegreret institution,Beder-Malling dagtilbud,Børnehuset Grønnebakken,56,Præstetoften 1,8330,Beder,56.060951,10.219179,Joan Elkær Sø,https://bedermallingdagtilbud.aarhus.dk/,2024-05-07T07:16:00
12,300,20240501,Aldersintegreret institution,Beder-Malling dagtilbud,Børnehuset Tværgade,57,Tværgade 3,8340,Malling,56.037792,10.196832,Laura Schmidt Enevoldsen,https://bedermallingdagtilbud.aarhus.dk/,2024-05-07T07:16:00
13,150,20240501,Aldersintegreret institution,Hasle dagtilbud,Børnehuset Bakken,53,Herredsvej 19,8210,Aarhus V,56.170921,10.163429,Marianne Fisker,https://dagtilbudhasle.aarhus.dk/,2024-05-07T07:16:00
14,405,20240501,Aldersintegreret institution,Brabrand dagtilbud,Børnehuset Engen - Væksthuset,46,Jettesvej 10B,8220,Brabrand,56.157028,10.132688,Annette Meler,https://brabranddagtilbud.aarhus.dk/,2024-05-07T07:16:00
15,483,20240501,Dagpleje,Skødstrup dagtilbud,Dagplejen ved Skødstrup Dagtilbud,35,Ny Studstrupvej 3E,8541,Skødstrup,56.267632,10.31223,Heidi Klitgaard Clemensen,https://skoedstrupdagtilbud.aarhus.dk/,2024-05-07T07:16:00
16,2177,20240501,Aldersintegreret institution,Brabrand dagtilbud,Børnehuset Stranden - Væksthuset,45,Jettesvej 10C,8220,Brabrand,56.156784,10.132688,Charlotte Stampe Sandau,https://brabranddagtilbud.aarhus.dk/,2024-05-07T07:16:00
18,155,20240501,Aldersintegreret institution,Hasle dagtilbud,Børnehuset Himmelblå,57,Snogebæksvej 12,8210,Aarhus V,56.176407,10.172417,Dorthe Skytte Holten,https://dagtilbudhasle.aarhus.dk/,2024-05-07T07:16:00
19,282,20240501,Aldersintegreret institution,Christiansbjerg dagtilbud,Børnehuset Malmøgade,67,Malmøgade 10,8200,Aarhus N,56.18021,10.196614,Mikkel Wulff Schneider,https://dagtilbuddetchristiansbjerg.aarhus.dk,2024-05-07T07:16:00
20,279,20240501,Aldersintegreret institution,Christiansbjerg dagtilbud,DII Drivhuset,75,Bodøvej 96,8200,Aarhus N,56.180122,10.180943,Malene Fink Ploug,https://dagtilbuddetchristiansbjerg.aarhus.dk,2024-05-07T07:16:00
21,281,20240501,Aldersintegreret institution,Christiansbjerg dagtilbud,Idrætsbørnehaven Motalagade,56,Motalagade 6,8200,Aarhus N,56.179398,10.196833,Maiken Thorhauge,https://dagtilbuddetchristiansbjerg.aarhus.dk,2024-05-07T07:16:00
22,2134,20240501,Børnehave,Christiansbjerg dagtilbud,Kløverparken,31,Rødkløvervej 4,8200,Aarhus N,56.172958,10.198707,Lotte Pedersen,https://dagtilbuddetchristiansbjerg.aarhus.dk,2024-05-07T07:16:00
23,88,20240501,Aldersintegreret institution,Hasle dagtilbud,Børnehuset Fjældevænget,81,Fjældevænget 52,8210,Aarhus V,56.177525,10.165193,Hanne Steenstrup,https://dagtilbudhasle.aarhus.dk/,2024-05-07T07:16:00
24,153,20240501,Aldersintegreret institution,Hasle dagtilbud,Børnehuset Hobbitten,59,Septembervej 23,8210,Aarhus V,56.17659,10.153667,Nikolaj Grove,https://dagtilbudhasle.aarhus.dk/,2024-05-07T07:16:00
25,156,20240501,Aldersintegreret institution,Hasle dagtilbud,Børnehuset Rydevænget,44,Rydevænget 51,8210,Aarhus V,56.182758,10.167253,Neel Kielberg-Nielsen,https://dagtilbudhasle.aarhus.dk/,2024-05-07T07:16:00
26,294,20240501,Aldersintegreret institution,Beder-Malling dagtilbud,Børnehuset Amaliegården,55,Byagervej 98,8330,Beder,56.055355,10.205009,Helle Sønnichsen,https://bedermallingdagtilbud.aarhus.dk/,2024-05-07T07:16:00
27,283,20240501,Børnehave,Christiansbjerg dagtilbud,Thorshavnsgade,31,Thorshavnsgade 16,8200,Aarhus N,56.176384,10.183835,Annette Hoffmann Møller,https://dagtilbuddetchristiansbjerg.aarhus.dk,2024-05-07T07:16:00
28,151,20240501,Aldersintegreret institution,Hasle dagtilbud,Idrætsinstitutionen Rend og Hop,55,Kappelvænget 44,8210,Aarhus V,56.179798,10.164463,Anders Tingskov Andersen,https://dagtilbudhasle.aarhus.dk/,2024-05-07T07:16:00
29,152,20240501,Aldersintegreret institution,Hasle dagtilbud,Solen,73,Kappelvænget 46,8210,Aarhus V,56.179989,10.163819,Brian Rasmussen,https://dagtilbudhasle.aarhus.dk/,2024-05-07T07:16:00
30,148,20240501,Vuggestue,Hasle dagtilbud,Vuggestuen Charlottehøj,39,Paludan-Müllers Vej 185,8200,Aarhus N,56.179424,10.174332,Neel Kielberg-Nielsen,https://dagtilbudhasle.aarhus.dk/,2024-05-07T07:16:00
31,2193,20240501,Vuggestue,Hasle dagtilbud,Vuggestuen Krible Krable,28,Kalendervej 5,8210,Aarhus V,56.172459,10.164014,Amal El-Awad,https://dagtilbudhasle.aarhus.dk/,2024-05-07T07:16:00
32,478,20240501,Aldersintegreret institution,Skjoldhøj dagtilbud,Baobab,47,Runevej 107,8210,Aarhus V,56.174541,10.136877,Hanne Østergård,https://skjoldhoejdagtilbud.aarhus.dk/,2024-05-07T07:16:00
33,474,20240501,Aldersintegreret institution,Skjoldhøj dagtilbud,Børnehuset Bulderby,47,Jernaldervej 288,8210,Aarhus V,56.17543,10.128685,Søren Siggaard Straszek,https://skjoldhoejdagtilbud.aarhus.dk/,2024-05-07T07:16:00
34,400,20240501,Aldersintegreret institution,Brabrand dagtilbud,Børnehuset Skoven - Væksthuset,45,Jettesvej 10D,8220,Brabrand,56.156944,10.133482,Annette Meler,https://brabranddagtilbud.aarhus.dk/,2024-05-07T07:16:00
36,399,20240501,Aldersintegreret institution,Brabrand dagtilbud,Natur og Miljøbørnehuset Viben,57,Jettesvej 2,8220,Brabrand,56.157799,10.131058,Merete Horn,https://brabranddagtilbud.aarhus.dk/,2024-05-07T07:16:00
37,473,20240501,Aldersintegreret institution,Skjoldhøj dagtilbud,Børnehuset Jernurten,37,Jernaldervej 286,8210,Aarhus V,56.175045,10.129427,Cathrine Haugaard Thaaning Knudsen,https://skjoldhoejdagtilbud.aarhus.dk/,2024-05-07T07:16:00
38,470,20240501,Aldersintegreret institution,Tovshøj dagtilbud,Idrætsinstitutionen Ellekær,40,Jernaldervej 1,8210,Aarhus V,56.169891,10.151463,Tommy Rasmussen,https://tovshoejdagtilbud.aarhus.dk/,2024-05-07T07:16:00
39,471,20240501,Aldersintegreret institution,Tovshøj dagtilbud,Idrætsinstitutionen Myretuen,54,Ryhavevej 38,8210,Aarhus V,56.166046,10.156062,Carl Peter Hansen,https://tovshoejdagtilbud.aarhus.dk/,2024-05-07T07:16:00
40,468,20240501,Aldersintegreret institution,Tovshøj dagtilbud,DII Tumlehøjen,55,Jernaldervej 3A,8210,Aarhus V,56.170059,10.15234,Johanne Aymergen Eskesen,https://tovshoejdagtilbud.aarhus.dk/,2024-05-07T07:16:00
41,256,20240501,Aldersintegreret institution,Ellevang dagtilbud,Børnehuset Næringen,82,Næringen 1,8240,Risskov,56.191742,10.198857,Lene Bach Riber,https://ellevangdagtilbud.aarhus.dk/,2024-05-07T07:16:00
42,241,20240501,Aldersintegreret institution,Ellevang dagtilbud,Børnehuset ved Skoven,107,Kantorvænget 31,8240,Risskov,56.200714,10.205698,Søren Nielsen,https://ellevangdagtilbud.aarhus.dk/,2024-05-07T07:16:00
43,247,20240501,Aldersintegreret institution,Ellevang dagtilbud,DII Ellevang,103,Jellebakken 12,8240,Risskov,56.202213,10.217185,Vibeke Margrethe Jensen,https://ellevangdagtilbud.aarhus.dk/,2024-05-07T07:16:00
44,251,20240501,Aldersintegreret institution,Ellevang dagtilbud,Den integrerede institution Flintebakken,108,Flintebakken 2,8240,Risskov,56.206303,10.210577,Malene Petersen Kastbjerg,https://ellevangdagtilbud.aarhus.dk/,2024-05-07T07:16:00
45,252,20240501,Aldersintegreret institution,Ellevang dagtilbud,Tornebakken,104,Tornebakken 3,8240,Risskov,56.202473,10.212297,Betina Petersen,https://ellevangdagtilbud.aarhus.dk/,2024-05-07T07:16:00
46,460,20240501,Vuggestue,Tilst dagtilbud,Vuggestuen Solstrålen,34,Haurumsvej 1A,8381,Tilst,56.187984,10.105715,June Finsen Nielsen,https://tilstdagtilbud.aarhus.dk/,2024-05-07T07:16:00
47,248,20240501,Vuggestue,Ellevang dagtilbud,Vuggestuen Trekanten,33,Kildehøjen 4,8240,Risskov,56.19809,10.21845,Dorthe Malling Nielsen,https://ellevangdagtilbud.aarhus.dk/,2024-05-07T07:16:00
48,125,20240501,Børnehave,Frederiksbjerg dagtilbud,Børnehaven Guldbryllupsasylet,68,Skt. Pauls Gade 31,8000,Aarhus C,56.146065,10.200674,Christina Søndergaard Kristensen,https://frederiksbjergdagtilbud.aarhus.dk/,2024-05-07T07:16:00
49,124,20240501,Vuggestue,Frederiksbjerg dagtilbud,Børnehuset Ole Rømer,78,Ole Rømers Gade 36,8000,Aarhus C,56.146744,10.196686,Mette Loft Madsen,https://frederiksbjergdagtilbud.aarhus.dk/,2024-05-07T07:16:00
50,120,20240501,Børnehave,Frederiksbjerg dagtilbud,Frederiksbjerg Børnehus,65,Skt. Anna Gade 42,8000,Aarhus C,56.145618,10.197703,Helle Louise Skov Wiberg,https://frederiksbjergdagtilbud.aarhus.dk/,2024-05-07T07:16:00
51,137,20240501,Børnehave,Beder-Malling dagtilbud,Naturbørnehaven Ajstrup,25,Ajstrup Strandvej 1,8340,Malling,56.039623,10.238125,Søren Ulstrup,https://bedermallingdagtilbud.aarhus.dk/,2024-05-07T07:16:00
52,118,20240501,Vuggestue,Frederiksbjerg dagtilbud,Vuggestuen Jægergårdsgade,52,Jægergårdsgade 70,8000,Aarhus C,56.14753,10.201111,Maria Kristina Syppli Hansen,https://frederiksbjergdagtilbud.aarhus.dk/,2024-05-07T07:16:00
53,122,20240501,Vuggestue,Frederiksbjerg dagtilbud,Vuggestuen Kroghsgade,40,Kroghsgade 1,8000,Aarhus C,56.145752,10.196915,Camilla Aldershvile Herlufsen,https://frederiksbjergdagtilbud.aarhus.dk/,2024-05-07T07:16:00
54,165,20240501,Vuggestue,Hasle dagtilbud,Vuggestuen Hasle,26,Østrevej 30,8210,Aarhus V,56.167747,10.168479,Sanne Nielsen Olesen,https://dagtilbudhasle.aarhus.dk/,2024-05-07T07:16:00
55,117,20240501,Aldersintegreret institution,Frederiksbjerg dagtilbud,Børnehuset Jægergårdsgade,80,Jægergårdsgade 68,8000,Aarhus C,56.147644,10.200938,Lisbeth Buchwald Jakobsen,https://frederiksbjergdagtilbud.aarhus.dk/,2024-05-07T07:16:00
56,119,20240501,Vuggestue,Frederiksbjerg dagtilbud,Vuggestuen Marselis Boulevard,49,Marselis Boulevard 48,8000,Aarhus C,56.141171,10.195753,Ulla Maarslet Kristensen,https://frederiksbjergdagtilbud.aarhus.dk/,2024-05-07T07:16:00
57,421,20240501,Børnehave,Brabrandsøens dagtilbud,Børnehaven Enggården,42,Engdalsvej 93A,8220,Brabrand,56.15012,10.124281,Mette Pasgaard,https://brabrandsoeensdagtilbud.aarhus.dk,2024-05-07T07:16:00
58,178,20240501,Aldersintegreret institution,Nordbyernes dagtilbud,Spiren,58,Skovager 1,8530,Hjortshøj,56.245708,10.273919,Hanne Nyboe Kjeldsen,https://nordbyernesdagtilbud.aarhus.dk,2024-05-07T07:16:00
59,424,20240501,Aldersintegreret institution,Brabrandsøens dagtilbud,Børnehuset Klods Hans,46,Louisevej 31,8220,Brabrand,56.148373,10.138147,Maria Ugelvig Koopmann,https://brabrandsoeensdagtilbud.aarhus.dk,2024-05-07T07:16:00
60,426,20240501,Aldersintegreret institution,Brabrandsøens dagtilbud,Børnehuset Nattergalen,50,Louisevej 35,8220,Brabrand,56.148788,10.137324,Rikke Hærup Gregersen,https://brabrandsoeensdagtilbud.aarhus.dk,2024-05-07T07:16:00
61,402,20240501,Aldersintegreret institution,Brabrandsøens dagtilbud,Børnehuset Safiren,85,Helenelyst 70,8220,Brabrand,56.161125,10.094072,Daniel Bøgehøj Schibsbye,https://brabrandsoeensdagtilbud.aarhus.dk,2024-05-07T07:16:00
63,428,20240501,Aldersintegreret institution,Brabrandsøens dagtilbud,Kometen,50,Louisevej 35A,8220,Brabrand,56.148872,10.138283,Christian Wissing Brøndum,https://brabrandsoeensdagtilbud.aarhus.dk,2024-05-07T07:16:00
64,427,20240501,Aldersintegreret institution,Brabrandsøens dagtilbud,Børnesnak,71,Louisevej 37,8220,Brabrand,56.148869,10.138973,Hildur Sørensen,https://brabrandsoeensdagtilbud.aarhus.dk,2024-05-07T07:16:00
65,419,20240501,Aldersintegreret institution,Brabrandsøens dagtilbud,Solskin,59,Byleddet 22A,8220,Brabrand,56.150642,10.089535,Lisbeth Selchau Skjellerup,https://brabrandsoeensdagtilbud.aarhus.dk,2024-05-07T07:16:00
66,418,20240501,Aldersintegreret institution,Brabrandsøens dagtilbud,Søstjernen,62,Byleddet 22B,8220,Brabrand,56.150372,10.089632,Lars Erik Damborg,https://brabrandsoeensdagtilbud.aarhus.dk,2024-05-07T07:16:00
67,420,20240501,Vuggestue,Brabrandsøens dagtilbud,Vuggestuen Spiloppen,26,Engdalsvej 6,8220,Brabrand,56.15218,10.103928,Hanne G. Rasmussen,https://brabrandsoeensdagtilbud.aarhus.dk,2024-05-07T07:16:00
68,425,20240501,Vuggestue,Brabrandsøens dagtilbud,Vuggestuen Tommelise,36,Louisevej 33,8220,Brabrand,56.148445,10.137541,Gitte Christensen,https://brabrandsoeensdagtilbud.aarhus.dk,2024-05-07T07:16:00
69,442,20240501,Børnehave,Gl. Åby dagtilbud,Børnehaven Silkeborgen,66,Silkeborgvej 342,8230,Åbyhøj,56.154007,10.146445,Annette Ferslev Højlund,https://glaabydagtilbud.aarhus.dk/,2024-05-07T07:16:00
70,496,20240501,Dagpleje,Gl. Åby dagtilbud,Dagplejen Åby,64,Henrik Hertz Vej 64E,8230,Åbyhøj,56.148373,10.157253,Lone Pedersen,https://glaabydagtilbud.aarhus.dk/,2024-05-07T07:16:00
71,433,20240501,Aldersintegreret institution,Gl. Åby dagtilbud,Hobbitten,72,Åbyvej 91,8230,Åbyhøj,56.146198,10.163043,Lone Kanne-Hansen,https://glaabydagtilbud.aarhus.dk/,2024-05-07T07:16:00
72,430,20240501,Aldersintegreret institution,Gl. Åby dagtilbud,Perlen,92,B.S. Ingemanns Vej 27,8230,Åbyhøj,56.152531,10.163692,Camilla Dalsgaard Juul,https://glaabydagtilbud.aarhus.dk/,2024-05-07T07:16:00
73,435,20240501,Vuggestue,Gl. Åby dagtilbud,Vuggestuen Heimdalsvej,28,Heimdalsvej 5,8230,Åbyhøj,56.155273,10.176919,Pia Kristiansen,https://glaabydagtilbud.aarhus.dk/,2024-05-07T07:16:00
74,436,20240501,Vuggestue,Gl. Åby dagtilbud,Vuggestuen Nannasvej,37,Nannasvej 4,8230,Åbyhøj,56.154343,10.17834,Trine Jønsson,https://glaabydagtilbud.aarhus.dk/,2024-05-07T07:16:00
75,437,20240501,Vuggestue,Gl. Åby dagtilbud,Vuggestuen Silkeborgvej 88A,32,Silkeborgvej 88A,8000,Aarhus C,56.156727,10.183723,Pia Kristiansen,https://glaabydagtilbud.aarhus.dk/,2024-05-07T07:16:00
76,416,20240501,Børnehave,Harlev dagtilbud,Børnehaven Næshøj,69,Sydbakken 6,8462,Harlev J,56.142097,9.9986439,Clara Josefine Christensen,https://harlevdagtilbud.aarhus.dk/,2024-05-07T07:16:00
77,414,20240501,Aldersintegreret institution,Harlev dagtilbud,Børnehuset Pilehaven,79,Rødlundvænget 35,8462,Harlev J,56.142746,9.9868488,Irene Møller Blume,https://harlevdagtilbud.aarhus.dk/,2024-05-07T07:16:00
78,415,20240501,Aldersintegreret institution,Harlev dagtilbud,Kompasset,61,Rødlundvænget 37,8462,Harlev J,56.143032,9.9860706,,https://harlevdagtilbud.aarhus.dk/,2024-05-07T07:16:00
79,413,20240501,Aldersintegreret institution,Harlev dagtilbud,Regnbuen,60,Næshøjvej 20,8462,Harlev J,56.145245,9.9937592,Malene Præstekjær,https://harlevdagtilbud.aarhus.dk/,2024-05-07T07:16:00
80,179,20240501,Aldersintegreret institution,Nordbyernes dagtilbud,Børnegården Bifrost,67,Østergårdstoften 1,8530,Hjortshøj,56.250614,10.268909,Peter Kristian Palmelund,https://nordbyernesdagtilbud.aarhus.dk,2024-05-07T07:16:00
81,177,20240501,Aldersintegreret institution,Nordbyernes dagtilbud,Solsikken,74,Kankbøllevej 12,8530,Hjortshøj,56.245583,10.271728,Charlotte Juul Lundgaard,https://nordbyernesdagtilbud.aarhus.dk,2024-05-07T07:16:00
82,373,20240501,Aldersintegreret institution,Holme-Rundhøj dagtilbud,Børnehuset Jorden Rundt,66,Rundhøj Allé 83,8270,Højbjerg,56.118664,10.175025,Christina Pedersen,https://holmerundhoejdagtilbud.aarhus.dk/,2024-05-07T07:16:00
83,366,20240501,Aldersintegreret institution,Holme-Rundhøj dagtilbud,Børnehuset Tulshøjvej 5,48,Tulshøjvej 5,8270,Højbjerg,56.11301,10.172644,Birgitte Vinther Olesen,https://holmerundhoejdagtilbud.aarhus.dk/,2024-05-07T07:16:00
84,493,20240501,Dagpleje,Holme-Rundhøj dagtilbud,Dagplejen Højbjerg og Holme,16,Hjulbjergvej 7A,8270,Højbjerg,56.113384,10.19106,Bente Reimer,https://holmerundhoejdagtilbud.aarhus.dk/,2024-05-07T07:16:00
85,359,20240501,Aldersintegreret institution,Holme-Rundhøj dagtilbud,Elverhøj,51,Nygårdsvej 11,8270,Højbjerg,56.110626,10.175195,Caroline Lundsgaard Hald,https://holmerundhoejdagtilbud.aarhus.dk/,2024-05-07T07:16:00
86,360,20240501,Aldersintegreret institution,Holme-Rundhøj dagtilbud,Flyverhøjen,80,Nygårdsvej 15,8270,Højbjerg,56.110622,10.17618,Rikke Dollerup,https://holmerundhoejdagtilbud.aarhus.dk/,2024-05-07T07:16:00
87,368,20240501,Aldersintegreret institution,Holme-Rundhøj dagtilbud,Holme Børnehus,63,Urmagertoften 24,8270,Højbjerg,56.107304,10.168346,Bente Reimer,https://holmerundhoejdagtilbud.aarhus.dk/,2024-05-07T07:16:00
88,364,20240501,Aldersintegreret institution,Holme-Rundhøj dagtilbud,Holmetræet,91,Hjulbjergvej 127,8270,Højbjerg,56.112701,10.183928,Helle Eskildsen,https://holmerundhoejdagtilbud.aarhus.dk/,2024-05-07T07:16:00
89,358,20240501,Aldersintegreret institution,Holme-Rundhøj dagtilbud,Kløverhulen,72,Nygårdsvej 3B,8270,Højbjerg,56.109852,10.173908,Annemarie Jørgensen,https://holmerundhoejdagtilbud.aarhus.dk/,2024-05-07T07:16:00
91,174,20240501,Aldersintegreret institution,Nordbyernes dagtilbud,Hårup Børnegård,76,Salonikivej 26,8530,Hjortshøj,56.286964,10.214406,Maiken Barbré Hedegaard,https://nordbyernesdagtilbud.aarhus.dk,2024-05-07T07:16:00
92,195,20240501,Aldersintegreret institution,Nordbyernes dagtilbud,Krokodillehaven,97,Koldkilde 9,8520,Lystrup,56.241096,10.196682,Lena Bøgeskov Petersen,https://nordbyernesdagtilbud.aarhus.dk,2024-05-07T07:16:00
93,192,20240501,Aldersintegreret institution,Nordbyernes dagtilbud,Møllehuset,71,Lille Elstedvej 189,8520,Lystrup,56.235474,10.218348,Helle Margit Nielsen,https://nordbyernesdagtilbud.aarhus.dk,2024-05-07T07:16:00
94,175,20240501,Aldersintegreret institution,Nordbyernes dagtilbud,Todbjerg Børnehus,48,Bøggildsvej 22,8530,Hjortshøj,56.26944,10.21093,Heidi Katrine Laprath,https://nordbyernesdagtilbud.aarhus.dk,2024-05-07T07:16:00
95,2008,20240501,Aldersintegreret institution,Kolt Hasselager dagtilbud,Børnehuset Olympia,53,Kolt Østervej 49,8361,Hasselager,56.110161,10.077808,Pernille Kjems,https://kolthasselagerdagtilbud.aarhus.dk/,2024-05-07T07:16:00
96,326,20240501,Aldersintegreret institution,Kolt Hasselager dagtilbud,Børnehuset Pilehytten,52,Pilegårdsvej 89,8361,Hasselager,56.106232,10.076284,Dorthe Søndergaard Duvald,https://kolthasselagerdagtilbud.aarhus.dk/,2024-05-07T07:16:00
97,412,20240501,Vuggestue,Harlev dagtilbud,Vuggestuen Den Grønne Gren,37,Grønhøjvej 62,8462,Harlev J,56.145473,10.001042,Lene Vella Ottosen,https://harlevdagtilbud.aarhus.dk/,2024-05-07T07:16:00
98,481,20240501,Dagpleje,Nordbyernes dagtilbud,"Dagplejen i Hjortshøj, Hårup, Mejlby og Elev",33,Virupvej 69,8530,Hjortshøj,56.244453,10.270295,Carina Holm,https://hjortshoejdagtilbud.aarhus.dk/,2024-05-07T07:16:00
99,322,20240501,Aldersintegreret institution,Kolt Hasselager dagtilbud,Bavnebakken,71,Bavnebakken 111,8361,Hasselager,56.110104,10.082836,Anette Hostrup,https://kolthasselagerdagtilbud.aarhus.dk/,2024-05-07T07:16:00
100,490,20240501,Dagpleje,Kolt Hasselager dagtilbud,Dagplejen i Kolt og Hasselager,27,Pilegårdsvej 95,8361,Hasselager,56.106136,10.075345,Dorthe Søndergaard Duvald,https://kolthasselagerdagtilbud.aarhus.dk/,2024-05-07T07:16:00
101,2024,20240501,Aldersintegreret institution,Kolt Hasselager dagtilbud,Kolbøtten,74,Koltvej 49,8361,Hasselager,56.107464,10.090235,Benedikte Broe,https://kolthasselagerdagtilbud.aarhus.dk/,2024-05-07T07:16:00
102,324,20240501,Aldersintegreret institution,Kolt Hasselager dagtilbud,Labyrinten,69,Kolt Østervej 53,8361,Hasselager,56.111282,10.078206,Caroline Mortensen,https://kolthasselagerdagtilbud.aarhus.dk/,2024-05-07T07:16:00
103,325,20240501,Aldersintegreret institution,Kolt Hasselager dagtilbud,Spiloppen,86,Pilegårdsvej 95,8361,Hasselager,56.106136,10.075345,Karen Schou,https://kolthasselagerdagtilbud.aarhus.dk/,2024-05-07T07:16:00
104,1935,20240501,Aldersintegreret institution,Lystrup-Elsted dagtilbud,Børnehuset Lyset,71,Indelukket 5,8520,Lystrup,56.241398,10.24633,Britta Krüger Bodholt,https://lystrupelsteddagtilbud.aarhus.dk/,2024-05-07T07:16:00
105,323,20240501,Aldersintegreret institution,Kolt Hasselager dagtilbud,Troldehøjen,68,Kolt Østervej 51,8361,Hasselager,56.110699,10.078284,Charlotte Hebert Purup,https://kolthasselagerdagtilbud.aarhus.dk/,2024-05-07T07:16:00
106,2136,20240501,Aldersintegreret institution,Kolt Hasselager dagtilbud,Universet,79,Kolt Østerparken 21A,8361,Hasselager,56.111519,10.09059,Dorthe Ellerup,https://kolthasselagerdagtilbud.aarhus.dk/,2024-05-07T07:16:00
107,109,20240501,Børnehave,Langenæs dagtilbud,Børnehuset og Mariendal,11,Langenæs Allé 29,8000,Aarhus C,56.141838,10.183696,Dorte Grønkjær,https://langenaesdagtilbud.aarhus.dk/,2024-05-07T07:16:00
109,113,20240501,Aldersintegreret institution,Langenæs dagtilbud,Langenæsstien 6A,60,Langenæsstien 6A,8000,Aarhus C,56.144199,10.183611,Camilla Rajczyk-Jørgensen,https://langenaesdagtilbud.aarhus.dk/,2024-05-07T07:16:00
110,114,20240501,Aldersintegreret institution,Langenæs dagtilbud,Langenæsstien 6B,70,Langenæsstien 6B,8000,Aarhus C,56.14447,10.183037,Camilla Rajczyk-Jørgensen,https://langenaesdagtilbud.aarhus.dk/,2024-05-07T07:16:00
111,107,20240501,Aldersintegreret institution,Langenæs dagtilbud,Børnehuset Langenæsstien 8B,59,Langenæsstien 8B,8000,Aarhus C,56.143959,10.183082,Kristian Møller Paulsen,https://langenaesdagtilbud.aarhus.dk/,2024-05-07T07:16:00
114,105,20240501,Vuggestue,Langenæs dagtilbud,Vuggestuen Ankersgade,42,Ankersgade 19,8000,Aarhus C,56.147881,10.191031,Mette Teglberg Madsen,https://langenaesdagtilbud.aarhus.dk/,2024-05-07T07:16:00
115,115,20240501,Vuggestue,Langenæs dagtilbud,Vuggestuen Langenæsstien 6D,38,Langenæsstien 6D,8000,Aarhus C,56.144215,10.182584,Gry Sand,https://langenaesdagtilbud.aarhus.dk/,2024-05-07T07:16:00
116,110,20240501,Vuggestue,Langenæs dagtilbud,Vuggestuen Læssøesgade,54,Læssøesgade 22,8000,Aarhus C,56.146534,10.188981,Lea Kjærgaard Rasmussen,https://langenaesdagtilbud.aarhus.dk/,2024-05-07T07:16:00
117,260,20240501,Aldersintegreret institution,Lisbjerg-Trige-Spørring dagtilbud,Børnehuset Gimlehøj,70,"Jørgen Clevins Gade 29, st. tv",8200,Aarhus N,56.218925,10.158816,Lone Honoré,https://lisbjergtrigespoerringdagtilbud.aarhus.dk/,2024-05-07T07:16:00
118,2180,20240501,Aldersintegreret institution,Lisbjerg-Trige-Spørring dagtilbud,Børnehuset Mimershøj,69,"Jørgen Clevins Gade 29, st. th",8200,Aarhus N,56.218925,10.158816,Lone Honoré,https://lisbjergtrigespoerringdagtilbud.aarhus.dk/,2024-05-07T07:16:00
119,259,20240501,Aldersintegreret institution,Lisbjerg-Trige-Spørring dagtilbud,Børnehuset Rønnebo,52,Elevvej 14,8200,Aarhus N,56.222443,10.16759,Marianne Sandberg Winther,https://lisbjergtrigespoerringdagtilbud.aarhus.dk/,2024-05-07T07:16:00
120,480,20240501,Dagpleje,Lisbjerg-Trige-Spørring dagtilbud,Idrætsdagplejen Trige - Spørring,28,Trige Centervej 75B,8380,Trige,56.251209,10.143224,Ane Kirk Gulmann,https://lisbjergtrigespoerringdagtilbud.aarhus.dk/,2024-05-07T07:16:00
121,1552,20240501,Aldersintegreret institution,Lisbjerg-Trige-Spørring dagtilbud,Idrætsinstitutionen Spørring børnehus,64,Gammel Landevej 29,8380,Trige,56.298573,10.145934,Lise Bendix Christiansen,https://lisbjergtrigespoerringdagtilbud.aarhus.dk/,2024-05-07T07:16:00
122,189,20240501,Aldersintegreret institution,Lystrup-Elsted dagtilbud,Blomsterhaven,58,Hasselhaven 3,8520,Lystrup,56.240524,10.236856,Lene Bomholt Jacobsen,https://lystrupelsteddagtilbud.aarhus.dk/,2024-05-07T07:16:00
123,185,20240501,Aldersintegreret institution,Lystrup-Elsted dagtilbud,Børnehuset Godthåb,70,Elsted Byvej 36,8520,Lystrup,56.244122,10.231819,Jan Linneberg,https://lystrupelsteddagtilbud.aarhus.dk/,2024-05-07T07:16:00
124,181,20240501,Aldersintegreret institution,Lystrup-Elsted dagtilbud,D.i.i. Børneuniverset,97,Lystrupvej 264,8520,Lystrup,56.238537,10.228542,Britta Saustrup Piloz,https://lystrupelsteddagtilbud.aarhus.dk/,2024-05-07T07:16:00
125,482,20240501,Dagpleje,Lystrup-Elsted dagtilbud,Dagplejen i Lystrup og Elsted,28,Elsted Skolevej 4,8520,Lystrup,56.240776,10.227651,Tanja Gissel Eriksen,https://lystrupelsteddagtilbud.aarhus.dk/,2024-05-07T07:16:00
126,186,20240501,Aldersintegreret institution,Lystrup-Elsted dagtilbud,Elsted Børnehus,49,Elsted Byvej 38,8520,Lystrup,56.24382,10.231878,Helle Kristine Oldenborg Andersen,https://lystrupelsteddagtilbud.aarhus.dk/,2024-05-07T07:16:00
127,188,20240501,Aldersintegreret institution,Lystrup-Elsted dagtilbud,Hasselhaven,56,Hasselhaven 1,8520,Lystrup,56.240658,10.237597,Jakob Tarp,https://lystrupelsteddagtilbud.aarhus.dk/,2024-05-07T07:16:00
128,191,20240501,Aldersintegreret institution,Lystrup-Elsted dagtilbud,Hurlumhejhuset,88,Lille Elstedvej 135,8520,Lystrup,56.233257,10.222272,Britt Solgaard,https://lystrupelsteddagtilbud.aarhus.dk/,2024-05-07T07:16:00
129,297,20240501,Aldersintegreret institution,Beder-Malling dagtilbud,Børnehuset Ajstrupvej,55,Ajstrupvej 47,8340,Malling,56.038364,10.200057,Dorthe Leick,https://bedermallingdagtilbud.aarhus.dk/,2024-05-07T07:16:00
130,183,20240501,Børnehave,Lystrup-Elsted dagtilbud,Børnehaven Lystruplund,39,Lystruplund 36,8520,Lystrup,56.229057,10.232933,Betina Hedegaard Thomsen,https://lystrupelsteddagtilbud.aarhus.dk/,2024-05-07T07:16:00
131,193,20240501,Aldersintegreret institution,Lystrup-Elsted dagtilbud,Ørnereden,92,Ørnedalen 2,8520,Lystrup,56.240658,10.225423,Lene Pehrson,https://lystrupelsteddagtilbud.aarhus.dk/,2024-05-07T07:16:00
132,140,20240501,Aldersintegreret institution,Midtbyens dagtilbud,Børnehuset Villekulla,48,Falstersgade 35,8000,Aarhus C,56.163765,10.199736,Annemette Fisker,https://midtbyensdagtilbud.aarhus.dk/,2024-05-07T07:16:00
133,136,20240501,Aldersintegreret institution,Midtbyens dagtilbud,Børnehuset Vores Sted,90,Livøsmøgen 36A,8000,Aarhus C,56.162804,10.204216,Camilla Wisler,https://midtbyensdagtilbud.aarhus.dk/,2024-05-07T07:16:00
134,2164,20240501,Aldersintegreret institution,Midtbyens dagtilbud,Kolbøtten,71,Thunøgade 11,8000,Aarhus C,56.161324,10.205933,Jane Wulff Schneider,https://midtbyensdagtilbud.aarhus.dk/,2024-05-07T07:16:00
135,128,20240501,Aldersintegreret institution,Midtbyens dagtilbud,Nørrestenbro,83,Knudrisgade 7A,8000,Aarhus C,56.163239,10.212588,Karen Randlev Reitz,https://midtbyensdagtilbud.aarhus.dk/,2024-05-07T07:16:00
136,129,20240501,Aldersintegreret institution,Midtbyens dagtilbud,Skattekisten,73,Knudrisgade 7B,8000,Aarhus C,56.163467,10.21253,Ann Kaasgaard Løwenstein,https://midtbyensdagtilbud.aarhus.dk/,2024-05-07T07:16:00
137,131,20240501,Aldersintegreret institution,Midtbyens dagtilbud,VokseVærket,97,Østboulevarden 9,8000,Aarhus C,56.163822,10.213733,Stinne Nielsen,https://midtbyensdagtilbud.aarhus.dk/,2024-05-07T07:16:00
138,133,20240501,Vuggestue,Midtbyens dagtilbud,Vuggestuen Graven,39,Graven 19,8000,Aarhus C,56.158283,10.2095,Kirsten Donaldson,https://midtbyensdagtilbud.aarhus.dk/,2024-05-07T07:16:00
139,171,20240501,Aldersintegreret institution,Lisbjerg-Trige-Spørring dagtilbud,Idrætsinstitutionen Tumlehøjen,103,Smedebroen 23,8380,Trige,56.25246,10.147601,Christian Kamp Christiansen,https://lisbjergtrigespoerringdagtilbud.aarhus.dk/,2024-05-07T07:16:00
140,139,20240501,Vuggestue,Midtbyens dagtilbud,Vuggestuen Ny Vimmerby,71,Falstersgade 17,8000,Aarhus C,56.162716,10.200406,Susanne Olesen,https://midtbyensdagtilbud.aarhus.dk/,2024-05-07T07:16:00
142,130,20240501,Vuggestue,Midtbyens dagtilbud,Vuggestuen Storkereden,51,Nørre Boulevard 1A,8000,Aarhus C,56.165031,10.211228,Hanne Gludsted,https://midtbyensdagtilbud.aarhus.dk/,2024-05-07T07:16:00
143,146,20240501,Aldersintegreret institution,Møllevang dagtilbud,Børnehuset Derudá,85,Høgevej 25A,8210,Aarhus V,56.171116,10.178463,Mette Hornemann,https://moellevangdagtilbud.aarhus.dk/,2024-05-07T07:16:00
144,166,20240501,Aldersintegreret institution,Møllevang dagtilbud,Børnehuset Frydenlund,103,Fuglebakkevej 62,8210,Aarhus V,56.167797,10.176006,Bettina Bech,https://moellevangdagtilbud.aarhus.dk/,2024-05-07T07:16:00
145,159,20240501,Aldersintegreret institution,Møllevang dagtilbud,Børnehuset Vesterbo,87,Poul Martin Møllers Vej 20,8000,Aarhus C,56.165668,10.191503,Lykke Noe,https://moellevangdagtilbud.aarhus.dk/,2024-05-07T07:16:00
146,162,20240501,Aldersintegreret institution,Møllevang dagtilbud,Børnehuset Haven,59,Vestervang 14,8000,Aarhus C,56.163006,10.193533,Sanne Højby,https://moellevangdagtilbud.aarhus.dk/,2024-05-07T07:16:00
147,168,20240501,Aldersintegreret institution,Møllevang dagtilbud,Ovenpå,61,Fuglebakkevej 66,8210,Aarhus V,56.167778,10.175523,Lisbeth Møller,https://moellevangdagtilbud.aarhus.dk/,2024-05-07T07:16:00
148,2170,20240501,Vuggestue,Møllevang dagtilbud,Vuggestuen Gårdhaven,26,Rosenstien 2,8000,Aarhus C,56.157093,10.187841,Hanne Christensen,https://moellevangdagtilbud.aarhus.dk/,2024-05-07T07:16:00
149,161,20240501,Vuggestue,Møllevang dagtilbud,Vuggestuen Kernehuset,41,Vestervang 12,8000,Aarhus C,56.162727,10.194962,Marianne Boesen Sponholtz,https://moellevangdagtilbud.aarhus.dk/,2024-05-07T07:16:00
150,163,20240501,Vuggestue,Møllevang dagtilbud,Vuggestuen Vestervang,53,Vestervang 15,8000,Aarhus C,56.163273,10.195335,Marie Schaarup Andersen,https://moellevangdagtilbud.aarhus.dk/,2024-05-07T07:16:00
151,147,20240501,Aldersintegreret institution,Møllevang dagtilbud,Væksthuset 8210,75,Højlyngen 1,8210,Aarhus V,56.172066,10.175409,Pia Axelsen,https://moellevangdagtilbud.aarhus.dk/,2024-05-07T07:16:00
152,230,20240501,Børnehave,Risskov dagtilbud,Børnehaven Jasminvej,66,Jasminvej 31,8240,Risskov,56.194569,10.238686,Ulrich von Holstein,https://aarhus.dk/BørnehavenJasminvej,2024-05-07T07:16:00
153,228,20240501,Aldersintegreret institution,Risskov dagtilbud,Børnehuset Alsvej,81,Alsvej 37,8240,Risskov,56.193001,10.222999,Glenn Toft Harborg,https://aarhus.dk/BørnehusetAlsvej,2024-05-07T07:16:00
154,234,20240501,Aldersintegreret institution,Risskov dagtilbud,Damhuset,131,Tretommervej 2,8240,Risskov,56.186062,10.22641,Pia Vangkilde-Pedersen,https://risskovdagtilbud.aarhus.dk/,2024-05-07T07:16:00
156,239,20240501,Aldersintegreret institution,Risskov dagtilbud,Gadekæret,50,Vikær Toften 2A,8240,Risskov,56.194153,10.215324,Vivi Geertsen Brügge,https://risskovdagtilbud.aarhus.dk/,2024-05-07T07:16:00
157,236,20240501,Aldersintegreret institution,Risskov dagtilbud,Risskov Børnehus,54,Frijsenborgvej 15,8240,Risskov,56.189587,10.213821,Betina Groth Bonde,https://risskovdagtilbud.aarhus.dk/,2024-05-07T07:16:00
158,233,20240501,Aldersintegreret institution,Risskov dagtilbud,Under Bøgen,58,Erling Jacobsens Gade 7,8240,Risskov,56.18766,10.234816,Hanne Rousing Toxværd,https://risskovdagtilbud.aarhus.dk/,2024-05-07T07:16:00
159,229,20240501,Vuggestue,Risskov dagtilbud,Vuggestuen Forteleddet,26,Forteledet 27,8240,Risskov,56.194324,10.236753,Ulrich von Holstein,https://www.aarhus.dk/VuggestuenForteleddet,2024-05-07T07:16:00
160,238,20240501,Vuggestue,Risskov dagtilbud,Vuggestuen Lindenborgvej,36,Lindenborgvej 7,8240,Risskov,56.188934,10.212645,Vivi Geertsen Brügge,https://risskovdagtilbud.aarhus.dk/,2024-05-07T07:16:00
161,232,20240501,Vuggestue,Risskov dagtilbud,Vuggestuen Solsikken,42,Erling Jacobsens Gade 5,8240,Risskov,56.187996,10.234977,Anni Møller,https://risskovdagtilbud.aarhus.dk/,2024-05-07T07:16:00
162,448,20240501,Aldersintegreret institution,Sabro dagtilbud,D.I.I. Evigglad,52,Sabro Skovvej 35A,8471,Sabro,56.212593,10.035069,Allan Jeppesen Baun,https://sabrodagtilbud.aarhus.dk/,2024-05-07T07:16:00
163,2033,20240501,Aldersintegreret institution,Sabro dagtilbud,D.I.I. Sommerfuglen,102,Rønnevangen 2,8471,Sabro,56.207996,10.04596,Morten Mellbak Branth,https://sabrodagtilbud.aarhus.dk/,2024-05-07T07:16:00
165,450,20240501,Aldersintegreret institution,Sabro dagtilbud,Galaksen,54,Vistoftvej 36A,8471,Sabro,56.211823,10.038379,Lizette Frandsen,https://sabrodagtilbud.aarhus.dk/,2024-05-07T07:16:00
166,449,20240501,Aldersintegreret institution,Sabro dagtilbud,Humlebien,53,Sabro Skovvej 35B,8471,Sabro,56.212666,10.034415,Morten Eliasen,https://sabrodagtilbud.aarhus.dk/,2024-05-07T07:16:00
167,451,20240501,Aldersintegreret institution,Sabro dagtilbud,Tryllefløjten,64,Sabro Skolevej 2,8471,Sabro,56.211426,10.022694,Morten Opstrup,https://sabrodagtilbud.aarhus.dk/,2024-05-07T07:16:00
168,262,20240501,Aldersintegreret institution,Skejby-Vorrevang dagtilbud,Børnehuset Bonanza,68,Næringen 101,8240,Risskov,56.194965,10.196182,Anne Winther Jørgensen,https://skejbyvorrevangdagtilbud.aarhus.dk/,2024-05-07T07:16:00
169,269,20240501,Aldersintegreret institution,Skejby-Vorrevang dagtilbud,Børnehuset Nordlys,79,Grydhøjvej 16A,8200,Aarhus N,56.187569,10.202135,Gudrun Dahl,https://skejbyvorrevangdagtilbud.aarhus.dk/,2024-05-07T07:16:00
170,264,20240501,Aldersintegreret institution,Skejby-Vorrevang dagtilbud,Børnehuset På Toppen,55,Næringen 97,8240,Risskov,56.19487,10.197383,Ulla Vibeke Lundorff,https://skejbyvorrevangdagtilbud.aarhus.dk/,2024-05-07T07:16:00
171,270,20240501,Aldersintegreret institution,Skejby-Vorrevang dagtilbud,Huset På Bakken,49,Lindholmvej 2A,8200,Aarhus N,56.188057,10.195223,Dorthe Rahbek,https://skejbyvorrevangdagtilbud.aarhus.dk/,2024-05-07T07:16:00
172,265,20240501,Aldersintegreret institution,Skejby-Vorrevang dagtilbud,Skibet,56,Skejbytoften 230,8200,Aarhus N,56.198071,10.189469,Unna Marie Schneider Fugl,https://skejbyvorrevangdagtilbud.aarhus.dk/,2024-05-07T07:16:00
173,266,20240501,Vuggestue,Skejby-Vorrevang dagtilbud,Vuggestuen Firkløveren,43,Skejbytoften 232,8200,Aarhus N,56.197628,10.189554,Rikke Nielsen,https://skejbyvorrevangdagtilbud.aarhus.dk/,2024-05-07T07:16:00
174,263,20240501,Vuggestue,Skejby-Vorrevang dagtilbud,Vuggestuen Lærkebo,36,Næringen 95,8240,Risskov,56.195,10.197062,Annette Hein,https://skejbyvorrevangdagtilbud.aarhus.dk/,2024-05-07T07:16:00
175,500,20240501,Dagpleje,Skjoldhøj dagtilbud,Dagplejen i Ellekær og Skjoldhøj,40,Skjoldhøjvej 9,8381,Tilst,56.174648,10.114627,Camilla Hillerup Lyhne,https://skjoldhoejdagtilbud.aarhus.dk/,2024-05-07T07:16:00
176,477,20240501,Aldersintegreret institution,Skjoldhøj dagtilbud,Mariehønen,40,Jernaldervænget 6,8220,Brabrand,56.173531,10.123346,Tina Bjerre Grubach,https://skjoldhoejdagtilbud.aarhus.dk/,2024-05-07T07:16:00
177,476,20240501,Aldersintegreret institution,Skjoldhøj dagtilbud,Regnbuen,44,Jernaldervænget 4,8220,Brabrand,56.173931,10.123753,Helle Lindmann Jespersen,https://skjoldhoejdagtilbud.aarhus.dk/,2024-05-07T07:16:00
178,466,20240501,Aldersintegreret institution,Skjoldhøj dagtilbud,Venøvej 9,49,Venøvej 9,8381,Tilst,56.175735,10.113459,Tom Wegner,https://skjoldhoejdagtilbud.aarhus.dk/,2024-05-07T07:16:00
179,2201,20240501,Vuggestue,Skjoldhøj dagtilbud,Vuggestuen Solsikken,22,Bronzealdertoften 1,8210,Aarhus V,56.172298,10.134559,Runa Busk,https://skjoldhoejdagtilbud.aarhus.dk/,2024-05-07T07:16:00
180,285,20240501,Børnehave,Skovvang og Trøjborg dagtilbud,Børnehaven Rytterparken,44,C.F. Jessens Vej 7,8200,Aarhus N,56.173534,10.208198,Lars Taanquist,https://skovvangtroejborgdagtilbud.aarhus.dk,2024-05-07T07:16:00
182,2178,20240501,Aldersintegreret institution,Skovvang og Trøjborg dagtilbud,Børnehuset Troldeskoven,47,Kornbakke Allé 60,8200,Aarhus N,56.180389,10.20521,Anne Dorthe Simonsen,https://skovvangtroejborgdagtilbud.aarhus.dk,2024-05-07T07:16:00
183,475,20240501,Aldersintegreret institution,Skjoldhøj dagtilbud,Legehuset,50,Jernaldervænget 2,8220,Brabrand,56.174362,10.124115,Runa Busk,https://skjoldhoejdagtilbud.aarhus.dk/,2024-05-07T07:16:00
184,486,20240501,Dagpleje,Skovvang og Trøjborg dagtilbud,Dagplejen Skovbo,54,Kornbakke Allé 58,8200,Aarhus N,56.180088,10.205171,Kathrine Wacher Duus,https://skovvangtroejborgdagtilbud.aarhus.dk/vores-afdelinger/dagplejen-skovbo,2024-05-07T07:16:00
185,287,20240501,Vuggestue,Skovvang og Trøjborg dagtilbud,Vuggestuen Kornbakken,52,Kornbakke Allé 58,8200,Aarhus N,56.180088,10.205171,Tina Holgaard Heinsen,https://skovvangtroejborgdagtilbud.aarhus.dk,2024-05-07T07:16:00
186,286,20240501,Vuggestue,Skovvang og Trøjborg dagtilbud,Vuggestuen Århusbo,56,H.P. Christensens Gade 3,8200,Aarhus N,56.17392,10.204934,Anne Sofie Fredholm,https://skovvangtroejborgdagtilbud.aarhus.dk,2024-05-07T07:16:00
187,384,20240501,Aldersintegreret institution,Skåde-Højbjerg dagtilbud,Bushøj,40,Bushøjvænget 182,8270,Højbjerg,56.107838,10.191457,Caroline Lundsgaard Hald,https://skaadehoejbjergdagtilbud.aarhus.dk/,2024-05-07T07:16:00
188,386,20240501,Aldersintegreret institution,Skåde-Højbjerg dagtilbud,Børnehuset Elmehøj,69,Elmehøjvej 4,8270,Højbjerg,56.102894,10.217718,Irma Bech Christiansen,https://skaadehoejbjergdagtilbud.aarhus.dk/,2024-05-07T07:16:00
189,387,20240501,Aldersintegreret institution,Skåde-Højbjerg dagtilbud,Børnehuset Stenvej,50,Stenvej 101,8270,Højbjerg,56.107311,10.203209,Betty Myrup,https://skaadehoejbjergdagtilbud.aarhus.dk/,2024-05-07T07:16:00
190,385,20240501,Aldersintegreret institution,Skåde-Højbjerg dagtilbud,Børnehuset Søsterhøj,52,Elmehøjvej 2,8270,Højbjerg,56.10302,10.217018,Lone Albertsen,https://skaadehoejbjergdagtilbud.aarhus.dk/,2024-05-07T07:16:00
191,377,20240501,Aldersintegreret institution,Skåde-Højbjerg dagtilbud,Børneslottet,67,Albert Naurs Vej 19,8270,Højbjerg,56.115582,10.201517,Mai Brandt Madsen,https://skaadehoejbjergdagtilbud.aarhus.dk/,2024-05-07T07:16:00
192,378,20240501,Aldersintegreret institution,Skåde-Højbjerg dagtilbud,DII Rygården,50,Elverdalsvej 46,8270,Højbjerg,56.112808,10.198493,Vivi Holst,https://skaadehoejbjergdagtilbud.aarhus.dk/,2024-05-07T07:16:00
193,465,20240501,Aldersintegreret institution,Skjoldhøj dagtilbud,Venøvej,57,Venøvej 7,8381,Tilst,56.175663,10.112777,Christina Hansen,https://skjoldhoejdagtilbud.aarhus.dk/,2024-05-07T07:16:00
194,381,20240501,Aldersintegreret institution,Skåde-Højbjerg dagtilbud,Kridthuset,102,Saralyst Allé 56,8270,Højbjerg,56.116608,10.190551,Mette Skovby Jensen,https://skaadehoejbjergdagtilbud.aarhus.dk/,2024-05-07T07:16:00
195,380,20240501,Aldersintegreret institution,Skåde-Højbjerg dagtilbud,Kræmmerhuset,53,Olaf Rudes Vej 20,8270,Højbjerg,56.118179,10.195434,Lone Albertsen,https://skaadehoejbjergdagtilbud.aarhus.dk/,2024-05-07T07:16:00
196,383,20240501,Aldersintegreret institution,Skåde-Højbjerg dagtilbud,Stennehøjallé,48,Stennehøj Allé 202A,8270,Højbjerg,56.107597,10.202253,Jette Stemberg,https://skaadehoejbjergdagtilbud.aarhus.dk/,2024-05-07T07:16:00
197,212,20240501,Aldersintegreret institution,Skæring-Sølyst dagtilbud,Annekæret,58,Annekærvej 34,8250,Egå,56.228275,10.29793,Marina Louise Thostrup,https://skaeringsoelystdagtilbud.aarhus.dk/,2024-05-07T07:16:00
198,225,20240501,Børnehave,Skæring-Sølyst dagtilbud,Børnehaven Labyrinten,64,Nordre Strandvej 159,8240,Risskov,56.202618,10.267238,Gyrithe Thurid Rokkjær,https://skaeringsoelystdagtilbud.aarhus.dk/,2024-05-07T07:16:00
199,224,20240501,Aldersintegreret institution,Skæring-Sølyst dagtilbud,DII Børnenes Have,139,Egå Strandvej 2,8250,Egå,56.20697,10.271466,Irene Uhrenholt,https://skaeringsoelystdagtilbud.aarhus.dk/,2024-05-07T07:16:00
200,484,20240501,Dagpleje,Skæring-Sølyst dagtilbud,"Dagplejen i Egå, Skæring, Studstrup og Risskov",18,Brobjerg Parkvej 60,8250,Egå,56.203033,10.258915,Grethe Andreasen,https://skaeringsoelystdagtilbud.aarhus.dk/,2024-05-07T07:16:00
201,213,20240501,Aldersintegreret institution,Skæring-Sølyst dagtilbud,Delfinhuset,82,Bredevej 2C,8250,Egå,56.229683,10.295184,Helle Marianne Junge,https://skaeringsoelystdagtilbud.aarhus.dk/,2024-05-07T07:16:00
202,223,20240501,Aldersintegreret institution,Skæring-Sølyst dagtilbud,Gl. Egå Børnehus,59,Eghøjvej 6,8250,Egå,56.216492,10.267046,Tina Pontoppidan,https://skaeringsoelystdagtilbud.aarhus.dk/,2024-05-07T07:16:00
203,209,20240501,Aldersintegreret institution,Skæring-Sølyst dagtilbud,Skærgården,71,Skæring Parkvej 544,8250,Egå,56.237041,10.303473,Judith Midtgaard,https://skaeringsoelystdagtilbud.aarhus.dk/,2024-05-07T07:16:00
204,207,20240501,Aldersintegreret institution,Skæring-Sølyst dagtilbud,Skæringhus,102,Skæring Hedevej 26,8250,Egå,56.231766,10.298968,Grethe Andreasen,https://skaeringsoelystdagtilbud.aarhus.dk/,2024-05-07T07:16:00
205,208,20240501,Aldersintegreret institution,Skæring-Sølyst dagtilbud,Stenhøjen,50,Skæring Parkvej 280,8250,Egå,56.234993,10.302526,Sine Tofte Jonsson,https://skaeringsoelystdagtilbud.aarhus.dk/,2024-05-07T07:16:00
206,210,20240501,Aldersintegreret institution,Skæring-Sølyst dagtilbud,Studsen,70,Skovager 4,8530,Hjortshøj,56.245663,10.273222,Laila Nielsen,https://skaeringsoelystdagtilbud.aarhus.dk/,2024-05-07T07:16:00
207,222,20240501,Vuggestue,Skæring-Sølyst dagtilbud,Vuggestuen Brohaven,40,Brohaven 1A,8250,Egå,56.204453,10.269914,Karen Marianne Forsmann,https://skaeringsoelystdagtilbud.aarhus.dk/,2024-05-07T07:16:00
208,214,20240501,Vuggestue,Skæring-Sølyst dagtilbud,Vuggestuen Tusindfryd,41,Skæring Skolevej 210,8250,Egå,56.228466,10.297155,Henriette Aspegren Lage,https://skaeringsoelystdagtilbud.aarhus.dk/,2024-05-07T07:16:00
209,198,20240501,Børnehave,Skødstrup dagtilbud,Børnehaven Bakkehuset,42,Kløvervangen 68,8541,Skødstrup,56.262501,10.299305,Charlotte Gram Johanson,https://skoedstrupdagtilbud.aarhus.dk/,2024-05-07T07:16:00
210,202,20240501,Børnehave,Skødstrup dagtilbud,Børnehaven Myrhøjen,56,Ny Studstrupvej 3A,8541,Skødstrup,56.267021,10.310869,Mie Bech Brun Nielsen,https://skoedstrupdagtilbud.aarhus.dk/,2024-05-07T07:16:00
211,2200,20240501,Aldersintegreret institution,Skødstrup dagtilbud,Børnehuset Kloden,110,Ny Studstrupvej 3E,8541,Skødstrup,56.267632,10.31223,Lars Steen Nielsen,https://skoedstrupdagtilbud.aarhus.dk/,2024-05-07T07:16:00
212,203,20240501,Aldersintegreret institution,Skødstrup dagtilbud,Børnehuset Liv,49,Ny Studstrupvej 3B,8541,Skødstrup,56.267498,10.310898,Tobias Lodberg Daugaard,https://skoedstrupdagtilbud.aarhus.dk/,2024-05-07T07:16:00
213,201,20240501,Aldersintegreret institution,Skødstrup dagtilbud,Engskovgård,53,Engskovgård 2,8541,Skødstrup,56.259991,10.307955,Marlene Skaanning Petersen,https://skoedstrupdagtilbud.aarhus.dk/,2024-05-07T07:16:00
214,2167,20240501,Aldersintegreret institution,Skødstrup dagtilbud,Junibakken,71,Tronkærgårdsvej 1A,8541,Skødstrup,56.264572,10.302313,Signe Mygind Hvid,https://skoedstrupdagtilbud.aarhus.dk/,2024-05-07T07:16:00
215,199,20240501,Aldersintegreret institution,Skødstrup dagtilbud,Stationsvangen,85,Stationsvangen 10,8541,Skødstrup,56.26189,10.304809,Rikke Hansen,https://skoedstrupdagtilbud.aarhus.dk/,2024-05-07T07:16:00
216,197,20240501,Vuggestue,Skødstrup dagtilbud,Vuggestuen Kløvervangen,32,Kløvervangen 64,8541,Skødstrup,56.262806,10.299177,Helle Urbak,https://skoedstrupdagtilbud.aarhus.dk/,2024-05-07T07:16:00
217,204,20240501,Aldersintegreret institution,Skødstrup dagtilbud,Væksthuset,65,Ny Studstrupvej 3C,8541,Skødstrup,56.26778,10.311425,Gitte Heinsen,https://skoedstrupdagtilbud.aarhus.dk/,2024-05-07T07:16:00
218,307,20240501,Aldersintegreret institution,Solbjerg-Mårslet dagtilbud,Børnehuset Bøgevangen,98,Bøgevangen 99,8355,Solbjerg,56.041245,10.089,Lotte Täck,https://solbjergmaarsletdagtilbud.aarhus.dk/,2024-05-07T07:16:00
220,303,20240501,Aldersintegreret institution,Solbjerg-Mårslet dagtilbud,Børnehuset Mirabellen,56,Borrevænget 28,8320,Mårslet,56.070446,10.164598,Lasse Hagenau Johannesen,https://solbjergmaarsletdagtilbud.aarhus.dk/,2024-05-07T07:16:00
221,1611,20240501,Aldersintegreret institution,Solbjerg-Mårslet dagtilbud,Børnehuset Nymarken,60,Nymarks Allé 1,8320,Mårslet,56.061363,10.156273,Gry Bjerg Düring,https://solbjergmaarsletdagtilbud.aarhus.dk/,2024-05-07T07:16:00
222,488,20240501,Dagpleje,Solbjerg-Mårslet dagtilbud,Dagplejen i Solbjerg-Mårslet,19,Nymarks Allé 1,8320,Mårslet,56.061363,10.156273,Mie Sønderby Lund,https://solbjergmaarsletdagtilbud.aarhus.dk/,2024-05-07T07:16:00
223,313,20240501,Aldersintegreret institution,Solbjerg-Mårslet dagtilbud,Græsbakken,58,Hørretvej 14B,8320,Mårslet,56.067944,10.165823,Christina Frederikke Stærdahl,https://solbjergmaarsletdagtilbud.aarhus.dk/,2024-05-07T07:16:00
224,1612,20240501,Aldersintegreret institution,Solbjerg-Mårslet dagtilbud,Hasselhuset,70,Kærgårdsvej 4A,8355,Solbjerg,56.041203,10.086583,Yvonne Pedersen,https://solbjergmaarsletdagtilbud.aarhus.dk/,2024-05-07T07:16:00
225,308,20240501,Aldersintegreret institution,Solbjerg-Mårslet dagtilbud,Kærgården,102,Kærgårdsvej 14,8355,Solbjerg,56.039867,10.086547,Vibeke Søndberg Horup,https://solbjergmaarsletdagtilbud.aarhus.dk/,2024-05-07T07:16:00
226,304,20240501,Aldersintegreret institution,Solbjerg-Mårslet dagtilbud,Mårslet Skovbørnehus,94,Testrupvej 8A,8320,Mårslet,56.068504,10.154716,Ole Drøgemüller,https://solbjergmaarsletdagtilbud.aarhus.dk/,2024-05-07T07:16:00
227,312,20240501,Aldersintegreret institution,Solbjerg-Mårslet dagtilbud,Solhuset,74,Hørretvej 14A,8320,Mårslet,56.067604,10.165531,Lene Brøndum,https://solbjergmaarsletdagtilbud.aarhus.dk/,2024-05-07T07:16:00
228,309,20240501,Aldersintegreret institution,Solbjerg-Mårslet dagtilbud,Spiren,73,Kærgårdsvej 39,8355,Solbjerg,56.039288,10.088365,Britta Hedegaard Svendsen,https://solbjergmaarsletdagtilbud.aarhus.dk/,2024-05-07T07:16:00
229,311,20240501,Aldersintegreret institution,Solbjerg-Mårslet dagtilbud,Valhalla,73,Bedervej 86,8320,Mårslet,56.063179,10.165489,Dorte Jacobsen,https://solbjergmaarsletdagtilbud.aarhus.dk/,2024-05-07T07:16:00
230,388,20240501,Aldersintegreret institution,Specialdagtilbud Skovbrynet,Afdeling Nygårdsvej,12,Nygårdsvej 13,8270,Højbjerg,56.110981,10.175193,Aske Lund Fomsgaard,https://specialdagtilbudskovbrynet.aarhus.dk/,2024-05-07T07:16:00
231,589,20240501,Børnehave,Specialdagtilbud Skovbrynet,Afdeling Skovbo,18,Hestehavevej 10,8270,Højbjerg,56.119965,10.202289,Mette Seierup,https://specialdagtilbudskovbrynet.aarhus.dk/,2024-05-07T07:16:00
232,590,20240501,Børnehave,Specialdagtilbud Skovbrynet,Afdeling Troldhøj,21,Hestehavevej 10,8270,Højbjerg,56.119965,10.202289,Peter Jensen,https://specialdagtilbudskovbrynet.aarhus.dk/,2024-05-07T07:16:00
233,315,20240501,Aldersintegreret institution,Stavtrup dagtilbud,Børnehøjen,54,Højvangsvej 1A,8260,Viby J,56.129612,10.116419,Rikke Malene Jensen,https://stavtrupdagtilbud.aarhus.dk/,2024-05-07T07:16:00
234,1998,20240501,Aldersintegreret institution,Stavtrup dagtilbud,D.I.I. Vestermarken,85,Vestermarken 2,8260,Viby J,56.128181,10.111427,Bodil Høgh,https://stavtrupdagtilbud.aarhus.dk/,2024-05-07T07:16:00
236,316,20240501,Aldersintegreret institution,Stavtrup dagtilbud,Klokkeskoven,51,Klokkeskovvej 11,8260,Viby J,56.131863,10.114716,Joan Wøhlk,https://stavtrupdagtilbud.aarhus.dk/,2024-05-07T07:16:00
237,317,20240501,Aldersintegreret institution,Stavtrup dagtilbud,Kælkebakken,49,Klokkeskovvej 13,8260,Viby J,56.13213,10.113268,Line Elley,https://stavtrupdagtilbud.aarhus.dk/,2024-05-07T07:16:00
238,2202,20240501,Aldersintegreret institution,Solbjerg-Mårslet dagtilbud,Fuglbjerggård,114,Solbjerg Hedevej 51,8355,Solbjerg,56.045368,10.087262,Gitte Schelling,https://solbjergmaarsletdagtilbud.aarhus.dk/,2024-05-07T07:16:00
239,2013,20240501,Aldersintegreret institution,Stavtrup dagtilbud,Motorikinstitutionen Snurretoppen,71,Bispevej 5,8260,Viby J,56.136913,10.116584,Dorte Windahl Hansen,https://stavtrupdagtilbud.aarhus.dk/,2024-05-07T07:16:00
240,318,20240501,Aldersintegreret institution,Stavtrup dagtilbud,Paletten,52,Klokkeskovvej 9,8260,Viby J,56.131905,10.115543,Susanne Mosegaard Rasmussen,https://stavtrupdagtilbud.aarhus.dk/,2024-05-07T07:16:00
241,319,20240501,Aldersintegreret institution,Stavtrup dagtilbud,Søskrænten,76,Søskrænten 1,8260,Viby J,56.134235,10.124491,Maria Groth Broberg,https://stavtrupdagtilbud.aarhus.dk/,2024-05-07T07:16:00
242,217,20240501,Aldersintegreret institution,Strandens dagtilbud,Børnehuset Ved Åen,113,Brobjerg Parkvej 60,8250,Egå,56.203033,10.258915,Rikke Lai Andersen,https://strandensdagtilbud.aarhus.dk/,2024-05-07T07:16:00
243,218,20240501,Aldersintegreret institution,Strandens dagtilbud,Julsøvej,57,Julsøvej 3,8240,Risskov,56.205051,10.25126,Cheena Mette Skytte Fredberg,https://strandensdagtilbud.aarhus.dk/,2024-05-07T07:16:00
244,216,20240501,Vuggestue,Strandens dagtilbud,Vuggestuen Pilehuset,48,Brobjerg Parkvej 64,8250,Egå,56.203407,10.258512,Kirsten Greibe,https://strandensdagtilbud.aarhus.dk/,2024-05-07T07:16:00
245,219,20240501,Aldersintegreret institution,Strandens dagtilbud,Åtrolden,80,Åmarksvej 17,8250,Egå,56.205975,10.259541,Jeanette Thimes Holst,https://strandensdagtilbud.aarhus.dk/,2024-05-07T07:16:00
246,341,20240501,Aldersintegreret institution,Søndervang-Vestergård dagtilbud,Børnehuset Ilden,65,Søndervangs Allé 40,8260,Viby J,56.111263,10.149488,Kim Mikkelsen,https://soendervangvestergaarddagtilbud.aarhus.dk,2024-05-07T07:16:00
247,340,20240501,Aldersintegreret institution,Søndervang-Vestergård dagtilbud,Børnehuset Luften,68,Søndervangs Allé 40,8260,Viby J,56.111263,10.149488,Viktoria Erdei Mogensen,https://soendervangvestergaarddagtilbud.aarhus.dk,2024-05-07T07:16:00
248,342,20240501,Aldersintegreret institution,Søndervang-Vestergård dagtilbud,Børnehuset Vandet,72,Søndervangs Allé 40,8260,Viby J,56.111263,10.149488,Anne Merete Ebbesen,https://soendervangvestergaarddagtilbud.aarhus.dk,2024-05-07T07:16:00
249,454,20240501,Aldersintegreret institution,Tilst dagtilbud,Børnehuset Mælkevejen,60,Græsvangen 127,8381,Tilst,56.192261,10.103862,Rikke Malene Juste,https://tilstdagtilbud.aarhus.dk/,2024-05-07T07:16:00
251,463,20240501,Aldersintegreret institution,Tilst dagtilbud,Det Blå Hus,70,Haurumsvej 18,8381,Tilst,56.189178,10.108735,Gitte Eland,https://tilstdagtilbud.aarhus.dk/,2024-05-07T07:16:00
252,462,20240501,Aldersintegreret institution,Tilst dagtilbud,Snurretoppen,53,Haurumsvej 16A,8381,Tilst,56.188915,10.108512,Majken Sindberg,https://tilstdagtilbud.aarhus.dk/,2024-05-07T07:16:00
253,455,20240501,Aldersintegreret institution,Tilst dagtilbud,Spiloppen,68,Græsvangen 48,8381,Tilst,56.192284,10.09986,Rikke-Therese Smidt,https://tilstdagtilbud.aarhus.dk/,2024-05-07T07:16:00
254,458,20240501,Aldersintegreret institution,Tilst dagtilbud,Søhøjen,89,Søhøjen 58,8381,Tilst,56.194523,10.101871,Majbritt Thomsen,https://tilstdagtilbud.aarhus.dk/,2024-05-07T07:16:00
255,461,20240501,Aldersintegreret institution,Tilst dagtilbud,Børnehuset Valhalla,52,Haurumsvej 1B,8381,Tilst,56.188221,10.105721,Sandra Riis Fuglsang,https://tilstdagtilbud.aarhus.dk/,2024-05-07T07:16:00
256,453,20240501,Aldersintegreret institution,Tilst dagtilbud,Æsken,48,Græsvangen 125,8381,Tilst,56.192314,10.104302,Camilla Kalstrup,https://tilstdagtilbud.aarhus.dk/,2024-05-07T07:16:00
257,394,20240501,Aldersintegreret institution,Tovshøj dagtilbud,Bevægelsesbørnehuset,78,Gudrunsvej 3A,8220,Brabrand,56.159054,10.14181,Anne-Marie Hovmand Nielsen,https://tovshoejdagtilbud.aarhus.dk/,2024-05-07T07:16:00
258,220,20240501,Vuggestue,Strandens dagtilbud,Vuggestuen Åkanden,36,Åvænget 1,8250,Egå,56.206589,10.260334,Lene Hausted Larsson,https://strandensdagtilbud.aarhus.dk/,2024-05-07T07:16:00
260,403,20240501,Aldersintegreret institution,Tovshøj dagtilbud,Idrætsbørnehuset v/Globus1,48,Gudrunsvej 3B,8220,Brabrand,56.158665,10.14172,Inge Skov,https://tovshoejdagtilbud.aarhus.dk/,2024-05-07T07:16:00
261,390,20240501,Aldersintegreret institution,Tovshøj dagtilbud,Junglen,41,Janesvej 1A,8220,Brabrand,56.164906,10.139175,Iben Leimann,https://tovshoejdagtilbud.aarhus.dk/,2024-05-07T07:16:00
263,391,20240501,Aldersintegreret institution,Tovshøj dagtilbud,Børnehuset Fusijama,58,Janesvej 29A,8220,Brabrand,56.165588,10.134506,Susanne Hamborg,https://tovshoejdagtilbud.aarhus.dk/,2024-05-07T07:16:00
264,2003,20240501,Aldersintegreret institution,Tranbjerg dagtilbud,Børnehuset Hoppeloppen,70,Torvevænget 5A,8310,Tranbjerg J,56.093945,10.138002,Pernille Ebert Just,https://tranbjergdagtilbud.aarhus.dk/,2024-05-07T07:16:00
265,334,20240501,Aldersintegreret institution,Tranbjerg dagtilbud,Børnehuset Klatretræet,59,Laurbærvænget 4,8310,Tranbjerg J,56.089497,10.142909,Tenna Kristensen,https://tranbjergdagtilbud.aarhus.dk/,2024-05-07T07:16:00
266,329,20240501,Aldersintegreret institution,Tranbjerg dagtilbud,Børnehuset Smilehullet,102,Østerby Allé 348,8310,Tranbjerg J,56.091354,10.140216,Lena Kruuse Skovby Andersen,https://tranbjergdagtilbud.aarhus.dk/,2024-05-07T07:16:00
267,333,20240501,Aldersintegreret institution,Tranbjerg dagtilbud,Børnehuset Ællebælle,73,Torvevænget 5C,8310,Tranbjerg J,56.094494,10.138637,Tanja Rydahl Overgaard,https://tranbjergdagtilbud.aarhus.dk/,2024-05-07T07:16:00
268,2032,20240501,Aldersintegreret institution,Tranbjerg dagtilbud,Børnesymfonien,104,Laurbærvænget 5A,8310,Tranbjerg J,56.089397,10.149307,Annie Lyck Engholm,https://tranbjergdagtilbud.aarhus.dk/,2024-05-07T07:16:00
269,491,20240501,Dagpleje,Tranbjerg dagtilbud,Dagplejen i Tranbjerg,18,Grønløkke Allé 5,8310,Tranbjerg J,56.093899,10.127298,Mie Sønderby Lund,https://tranbjergdagtilbud.aarhus.dk/,2024-05-07T07:16:00
270,331,20240501,Aldersintegreret institution,Tranbjerg dagtilbud,Legehuset Regnbuen,69,Børupvej 2,8310,Tranbjerg J,56.094791,10.129752,Steffen Hågensen Andersen,https://tranbjergdagtilbud.aarhus.dk/,2024-05-07T07:16:00
271,328,20240501,Aldersintegreret institution,Tranbjerg dagtilbud,Solsikken,72,Torvevænget 5B,8310,Tranbjerg J,56.094196,10.138365,Dorthe Wulff Krarup,https://tranbjergdagtilbud.aarhus.dk/,2024-05-07T07:16:00
272,335,20240501,Aldersintegreret institution,Tranbjerg dagtilbud,Eventyrskoven,72,Skovgårdsvænget 600,8310,Tranbjerg J,56.090569,10.12249,Carina Ardal Evers,https://tranbjergdagtilbud.aarhus.dk/,2024-05-07T07:16:00
273,275,20240501,Aldersintegreret institution,Skovvang og Trøjborg dagtilbud,Børneslottet Bavnehøj,43,Herluf Trolles Gade 6,8200,Aarhus N,56.172672,10.219625,Trine Teglgaard-Wittus,https://skovvangtroejborgdagtilbud.aarhus.dk,2024-05-07T07:16:00
274,274,20240501,Aldersintegreret institution,Skovvang og Trøjborg dagtilbud,Børnehuset Trolle,50,Herluf Trolles Gade 23B,8200,Aarhus N,56.172333,10.217769,Solveig Kjærgaard,https://skovvangtroejborgdagtilbud.aarhus.dk,2024-05-07T07:16:00
275,277,20240501,Aldersintegreret institution,Skovvang og Trøjborg dagtilbud,Skuden Skram,56,Peder Skrams Gade 43,8200,Aarhus N,56.17358,10.216572,Peter Klostergaard Nielsen,https://skovvangtroejborgdagtilbud.aarhus.dk,2024-05-07T07:16:00
276,276,20240501,Vuggestue,Skovvang og Trøjborg dagtilbud,Vuggestuen Rudgården,52,Otte Ruds Gade 26,8200,Aarhus N,56.171921,10.21711,Vibeke Juul Christensen,https://skovvangtroejborgdagtilbud.aarhus.dk,2024-05-07T07:16:00
278,2208,20240501,Aldersintegreret institution,Søndervang-Vestergård dagtilbud,DII Træhøjen,93,Onsholtvej 69A,8260,Viby J,56.122643,10.127773,Jesper Hagen Pedersen,https://soendervangvestergaarddagtilbud.aarhus.dk,2024-05-07T07:16:00
279,351,20240501,Aldersintegreret institution,Søndervang-Vestergård dagtilbud,Grøften,51,Grøfthøjparken 2,8260,Viby J,56.122379,10.1417,Hanna Timmermann,https://soendervangvestergaarddagtilbud.aarhus.dk,2024-05-07T07:16:00
280,350,20240501,Børnehave,Søndervang-Vestergård dagtilbud,Skovbørnehaven Grøftekanten,21,Grøfthøjparken 2,8260,Viby J,56.122379,10.1417,Hanna Timmermann,https://soendervangvestergaarddagtilbud.aarhus.dk,2024-05-07T07:16:00
281,348,20240501,Aldersintegreret institution,Søndervang-Vestergård dagtilbud,Skovkanten,46,Damagervej 18,8260,Viby J,56.13232,10.15309,Gitte Wang,https://soendervangvestergaarddagtilbud.aarhus.dk,2024-05-07T07:16:00
282,2150,20240501,Aldersintegreret institution,Viby-Rosenvang dagtilbud,Børnehuset Grundtvigsvej,66,Grundtvigsvej 26,8260,Viby J,56.12941,10.169504,Gunhild Bjarnason,https://vibyrosenvangdagtilbud.aarhus.dk/,2024-05-07T07:16:00
283,356,20240501,Aldersintegreret institution,Viby-Rosenvang dagtilbud,Børnehuset Moltkesvej,101,Moltkesvej 2,8260,Viby J,56.121143,10.149671,Nete Graugaard,https://vibyrosenvangdagtilbud.aarhus.dk/,2024-05-07T07:16:00
284,98,20240501,Aldersintegreret institution,Viby-Rosenvang dagtilbud,Børnehuset Vidtskue,62,Vidtskuevej 25A,8260,Viby J,56.128117,10.178061,Jesper Møller Juulsen,https://vibyrosenvangdagtilbud.aarhus.dk/,2024-05-07T07:16:00
285,337,20240501,Aldersintegreret institution,Viby-Rosenvang dagtilbud,Børnehuset Vilhelm Becks Vej,52,Vilhelm Becks Vej 51,8260,Viby J,56.13139,10.185466,Maiken Sønderby Nielsen,https://vibyrosenvangdagtilbud.aarhus.dk/,2024-05-07T07:16:00
286,338,20240501,Aldersintegreret institution,Viby-Rosenvang dagtilbud,DII Børnehuset Fredensvang,53,Vidtskuevej 27,8260,Viby J,56.127319,10.177152,Pia Lybek,https://vibyrosenvangdagtilbud.aarhus.dk/,2024-05-07T07:16:00
287,123,20240501,Aldersintegreret institution,Viby-Rosenvang dagtilbud,DII Tumlehuset,106,Observatorievejen 1A,8000,Aarhus C,56.127178,10.19462,,https://vibyrosenvangdagtilbud.aarhus.dk/,2024-05-07T07:16:00
288,272,20240501,Aldersintegreret institution,Skovvang og Trøjborg dagtilbud,Trøjborg Børnehus,46,Aldersrovej 21,8200,Aarhus N,56.171341,10.211167,Anders Rosbak Trane,https://skovvangtroejborgdagtilbud.aarhus.dk,2024-05-07T07:16:00
289,273,20240501,Vuggestue,Skovvang og Trøjborg dagtilbud,Vuggestuen Trøjborg,24,Barthsgade 20,8200,Aarhus N,56.171799,10.209839,Liselotte Krogh,https://skovvangtroejborgdagtilbud.aarhus.dk,2024-05-07T07:16:00
290,344,20240501,Aldersintegreret institution,Søndervang-Vestergård dagtilbud,2-Kløveren,101,Onsholtgårdsvej 2,8260,Viby J,56.121677,10.124249,Sten Stensgaard Andersen,https://soendervangvestergaarddagtilbud.aarhus.dk,2024-05-07T07:16:00
291,2166,20240501,Aldersintegreret institution,Viby-Rosenvang dagtilbud,Hurlumhejhuset,48,Vidtskuevej 31,8260,Viby J,56.127739,10.176198,Helene Bøgehøj Schibsbye,https://vibyrosenvangdagtilbud.aarhus.dk/,2024-05-07T07:16:00
292,354,20240501,Vuggestue,Viby-Rosenvang dagtilbud,Vuggestuen Bjørnbaksvej,48,Bjørnbaksvej 7,8260,Viby J,56.128284,10.168956,Marianne Duun Hougaard,https://vibyrosenvangdagtilbud.aarhus.dk/,2024-05-07T07:16:00
293,2168,20240501,Aldersintegreret institution,Åbyhøj dagtilbud,Børnehuset Børneliv,89,Klokkervej 53,8210,Aarhus V,56.160484,10.155244,Asbjørn Nielsen Tornby,https://aabyhoejdagtilbud.aarhus.dk/,2024-05-07T07:16:00
294,492,20240501,Dagpleje,Søndervang-Vestergård dagtilbud,Dagplejen i Viby og Stavtrup,9,Damagervej 18,8260,Viby J,56.13232,10.15309,Gitte Wang,https://vestergaarddagtilbud.aarhus.dk/,2024-05-07T07:16:00
295,353,20240501,Aldersintegreret institution,Viby-Rosenvang dagtilbud,Østerbo vuggestue og børnehave,90,Bjørnbaksvej 19,8260,Viby J,56.128235,10.169577,Marc Nøddesbo,https://vibyrosenvangdagtilbud.aarhus.dk/,2024-05-07T07:16:00
296,446,20240501,Børnehave,Åbyhøj dagtilbud,Børnehaven Gammelgården,46,Åbyhøjvej 4,8210,Aarhus V,56.165192,10.161129,Naimah Horo,https://aabyhoejdagtilbud.aarhus.dk/,2024-05-07T07:16:00
299,439,20240501,Aldersintegreret institution,Åbyhøj dagtilbud,Børnehuset Digterparken,80,Dr. Holsts Vej 52,8230,Åbyhøj,56.160183,10.145255,Lone Sørensen,https://aabyhoejdagtilbud.aarhus.dk/,2024-05-07T07:16:00
300,444,20240501,Aldersintegreret institution,Åbyhøj dagtilbud,Børnehuset Klokkervej,91,Klokkervej 38,8210,Aarhus V,56.16143,10.158503,Gitte Christine Lauridsen,https://aabyhoejdagtilbud.aarhus.dk/,2024-05-07T07:16:00
301,441,20240501,Aldersintegreret institution,Åbyhøj dagtilbud,Børnehuset Ryhaven,52,Ryhaven 114,8210,Aarhus V,56.163601,10.148387,Trine Trinderup-Thomsen,https://aabyhoejdagtilbud.aarhus.dk/,2024-05-07T07:16:00
302,440,20240501,Vuggestue,Åbyhøj dagtilbud,Ved Æbletræet,39,Gammelgårdsvej 24A,8230,Åbyhøj,56.157047,10.157714,Gitte Stoltze Sørensen,https://aabyhoejdagtilbud.aarhus.dk/,2024-05-07T07:16:00
303,2203,20240501,Aldersintegreret institution,Gl. Åby dagtilbud,Børnehuset Tusindfryd,30,Gudrunsvej 66B,8220,Brabrand,56.155937,10.137719,Janne Klode Damgaard,https://glaabydagtilbud.aarhus.dk/,2024-05-07T07:16:00
304,299,20240501,Aldersintegreret institution,Beder-Malling dagtilbud,Børnehuset Østerskov,63,Mallinggårdsvej 6,8340,Malling,56.042465,10.205343,Nina Henriette Hvid,https://bedermallingdagtilbud.aarhus.dk/,2024-05-07T07:16:00
305,293,20240501,Aldersintegreret institution,Beder-Malling dagtilbud,Børnehuset Himmelblå,71,Byagervej 96,8330,Beder,56.054527,10.20484,Mette Løwenstein,https://bedermallingdagtilbud.aarhus.dk/,2024-05-07T07:16:00
306,406,20240501,Aldersintegreret institution,Brabrand dagtilbud,Unimukken,28,Jettesvej 2,8220,Brabrand,56.157799,10.131058,Sharon Mcleman,https://brabranddagtilbud.aarhus.dk/,2024-05-07T07:16:00
307,2346,20240501,Aldersintegreret institution,Skovvang og Trøjborg dagtilbud,Kongevellen,92,Kongevellen 2D,8240,Risskov,56.184898,10.2109,Agnethe Kousgaard Rasmussen,https://skovvangtroejborgdagtilbud.aarhus.dk,2024-05-07T07:16:00
308,2351,20240501,Aldersintegreret institution,Dagtilbuddet Aarhus Ø,Børnenes Ø,117,Thit Jensens Gade 11A,8000,Aarhus C,56.164715,10.22774,Kirsten Vestergaard,https://dagtilbuddetaarhusoe.aarhus.dk/,2024-05-07T07:16:00
309,2352,20240501,Aldersintegreret institution,Nordbyernes dagtilbud,Børnehuset Løvstikken,106,Løvstikkevej 10,8200,Aarhus N,56.232857,10.208253,Anja Morgenstjerne,https://nordbyernesdagtilbud.aarhus.dk,2024-05-07T07:16:00
310,2357,20240501,Aldersintegreret institution,Beder-Malling dagtilbud,Børnehuset Molevitten,65,Mallinggårdsvej 4,8340,Malling,56.042786,10.205505,Ditte Pedersen,https://bedermallingdagtilbud.aarhus.dk/,2024-05-07T07:16:00
311,2371,20240501,Aldersintegreret institution,Lisbjerg-Trige-Spørring dagtilbud,DII Bakketoppen,70,Bjørnshøjvej 1C,8380,Trige,56.25296,10.150251,Kim Larsen,https://lisbjergtrigespoerringdagtilbud.aarhus.dk/,2024-05-07T07:16:00
312,2323,20240501,Børnehave,Specialdagtilbud Skovbrynet,Afdeling Skovhøj,30,Janesvej 2,8220,Brabrand,56.166771,10.137611,Marianne Nordvig,https://specialdagtilbudskovbrynet.aarhus.dk/,2024-05-07T07:16:00
313,2378,20240501,Aldersintegreret institution,Risskov dagtilbud,Idrætsbørnehuset Hoppeland,88,Frijsenborgvej 9,8240,Risskov,56.189045,10.21379,Bettina Skriver,https://risskovdagtilbud.aarhus.dk/,2024-05-07T07:16:00
314,2383,20240501,Vuggestue,Frederiksbjerg dagtilbud,International Day Nursery - Aarhus,23,Marselis Boulevard 50,8000,Aarhus C,56.140671,10.196028,Ulla Maarslet Kristensen,https://frederiksbjergdagtilbud.aarhus.dk/vores-afdelinger/international-day-nursery-aarhus/,2024-05-07T07:16:00
316,2395,20240501,Aldersintegreret institution,Tilst dagtilbud,Livstræet,54,Tilst Skolevej 13B,8381,Tilst,56.18919,10.110354,Pernille Fredshøj Andersen,https://tilstdagtilbud.aarhus.dk/,2024-05-07T07:16:00
317,2443,20240501,Aldersintegreret institution,Beder-Malling dagtilbud,Satelitten Serinedalen,29,Byagervej 164,8330,Beder,56.053596,10.212876,Tina Fosgrau Stage,https://bedermallingdagtilbud.aarhus.dk/,2024-05-07T07:16:00
